{"type": "FeatureCollection", "features": [{"type": "Feature", "geometry": {"type": "Point", "coordinates": [-72.67, -7.631]}, "properties": {"city": "AC-Cruzeiro_do_Sul", "max/min": "max", "lat": -7.631, "long": -72.67, "temp": 33.044373, "plus": "high"}, "id": 0}, {"type": "Feature", "geometry": {"type": "Point", "coordinates": [-72.67, -7.631]}, "properties": {"city": "AC-Cruzeiro_do_Sul", "max/min": "min", "lat": -7.631, "long": -72.67, "temp": 23.830322, "plus": "medium"}, "id": 1}, {"type": "Feature", "geometry": {"type": "Point", "coordinates": [-67.81, -9.975]}, "properties": {"city": "AC-Rio_Branco", "max/min": "max", "lat": -9.975, "long": -67.81, "temp": 33.223206, "plus": "high"}, "id": 2}, {"type": "Feature", "geometry": {"type": "Point", "coordinates": [-67.81, -9.975]}, "properties": {"city": "AC-Rio_Branco", "max/min": "min", "lat": -9.975, "long": -67.81, "temp": 24.495331, "plus": "medium"}, "id": 3}, {"type": "Feature", "geometry": {"type": "Point", "coordinates": [-35.735, -9.666]}, "properties": {"city": "AL-Macei\u00c3\u00b3", "max/min": "max", "lat": -9.666, "long": -35.735, "temp": 28.882019, "plus": "medium"}, "id": 4}, {"type": "Feature", "geometry": {"type": "Point", "coordinates": [-35.735, -9.666]}, "properties": {"city": "AL-Macei\u00c3\u00b3", "max/min": "min", "lat": -9.666, "long": -35.735, "temp": 27.38443, "plus": "medium"}, "id": 5}, {"type": "Feature", "geometry": {"type": "Point", "coordinates": [-62.924, -0.975]}, "properties": {"city": "AM-Barcelos", "max/min": "max", "lat": -0.975, "long": -62.924, "temp": 29.740509, "plus": "medium"}, "id": 6}, {"type": "Feature", "geometry": {"type": "Point", "coordinates": [-62.924, -0.975]}, "properties": {"city": "AM-Barcelos", "max/min": "min", "lat": -0.975, "long": -62.924, "temp": 26.994629, "plus": "medium"}, "id": 7}, {"type": "Feature", "geometry": {"type": "Point", "coordinates": [-64.798, -7.259]}, "properties": {"city": "AM-L\u00c3\u00a1brea", "max/min": "max", "lat": -7.259, "long": -64.798, "temp": 32.518127, "plus": "high"}, "id": 8}, {"type": "Feature", "geometry": {"type": "Point", "coordinates": [-64.798, -7.259]}, "properties": {"city": "AM-L\u00c3\u00a1brea", "max/min": "min", "lat": -7.259, "long": -64.798, "temp": 23.34433, "plus": "medium"}, "id": 9}, {"type": "Feature", "geometry": {"type": "Point", "coordinates": [-60.025, -3.102]}, "properties": {"city": "AM-Manaus", "max/min": "max", "lat": -3.102, "long": -60.025, "temp": 32.447449, "plus": "high"}, "id": 10}, {"type": "Feature", "geometry": {"type": "Point", "coordinates": [-60.025, -3.102]}, "properties": {"city": "AM-Manaus", "max/min": "min", "lat": -3.102, "long": -60.025, "temp": 23.61731, "plus": "medium"}, "id": 11}, {"type": "Feature", "geometry": {"type": "Point", "coordinates": [-64.711, -3.354]}, "properties": {"city": "AM-Tef\u00c3\u00a9", "max/min": "max", "lat": -3.354, "long": -64.711, "temp": 33.035583, "plus": "high"}, "id": 12}, {"type": "Feature", "geometry": {"type": "Point", "coordinates": [-64.711, -3.354]}, "properties": {"city": "AM-Tef\u00c3\u00a9", "max/min": "min", "lat": -3.354, "long": -64.711, "temp": 23.545319, "plus": "medium"}, "id": 13}, {"type": "Feature", "geometry": {"type": "Point", "coordinates": [-51.066, 0.0]}, "properties": {"city": "AP-Macap\u00c3\u00a1", "max/min": "max", "lat": 0.0, "long": -51.066, "temp": 30.576202, "plus": "medium"}, "id": 14}, {"type": "Feature", "geometry": {"type": "Point", "coordinates": [-51.066, 0.0]}, "properties": {"city": "AP-Macap\u00c3\u00a1", "max/min": "min", "lat": 0.0, "long": -51.066, "temp": 23.193634, "plus": "medium"}, "id": 15}, {"type": "Feature", "geometry": {"type": "Point", "coordinates": [-43.142, -11.089]}, "properties": {"city": "BA-Barra", "max/min": "max", "lat": -11.089, "long": -43.142, "temp": 30.91156, "plus": "medium"}, "id": 16}, {"type": "Feature", "geometry": {"type": "Point", "coordinates": [-43.142, -11.089]}, "properties": {"city": "BA-Barra", "max/min": "min", "lat": -11.089, "long": -43.142, "temp": 23.323639, "plus": "medium"}, "id": 17}, {"type": "Feature", "geometry": {"type": "Point", "coordinates": [-44.99, -12.153]}, "properties": {"city": "BA-Barreiras", "max/min": "max", "lat": -12.153, "long": -44.99, "temp": 28.177521, "plus": "medium"}, "id": 18}, {"type": "Feature", "geometry": {"type": "Point", "coordinates": [-44.99, -12.153]}, "properties": {"city": "BA-Barreiras", "max/min": "min", "lat": -12.153, "long": -44.99, "temp": 21.003632, "plus": "medium"}, "id": 19}, {"type": "Feature", "geometry": {"type": "Point", "coordinates": [-43.418, -13.255]}, "properties": {"city": "BA-Bom_Jesus_da_Lapa", "max/min": "max", "lat": -13.255, "long": -43.418, "temp": 30.508453, "plus": "medium"}, "id": 20}, {"type": "Feature", "geometry": {"type": "Point", "coordinates": [-43.418, -13.255]}, "properties": {"city": "BA-Bom_Jesus_da_Lapa", "max/min": "min", "lat": -13.255, "long": -43.418, "temp": 21.673431, "plus": "medium"}, "id": 21}, {"type": "Feature", "geometry": {"type": "Point", "coordinates": [-39.049, -14.82]}, "properties": {"city": "BA-Ilh\u00c3\u00a9us", "max/min": "max", "lat": -14.82, "long": -39.049, "temp": 29.983185, "plus": "medium"}, "id": 22}, {"type": "Feature", "geometry": {"type": "Point", "coordinates": [-39.049, -14.82]}, "properties": {"city": "BA-Ilh\u00c3\u00a9us", "max/min": "min", "lat": -14.82, "long": -39.049, "temp": 23.090454, "plus": "medium"}, "id": 23}, {"type": "Feature", "geometry": {"type": "Point", "coordinates": [-39.302, -15.563]}, "properties": {"city": "BA-Mascote", "max/min": "max", "lat": -15.563, "long": -39.302, "temp": 29.337006, "plus": "medium"}, "id": 24}, {"type": "Feature", "geometry": {"type": "Point", "coordinates": [-39.302, -15.563]}, "properties": {"city": "BA-Mascote", "max/min": "min", "lat": -15.563, "long": -39.302, "temp": 22.068451, "plus": "medium"}, "id": 25}, {"type": "Feature", "geometry": {"type": "Point", "coordinates": [-38.215, -9.406]}, "properties": {"city": "BA-Paulo_Afonso", "max/min": "max", "lat": -9.406, "long": -38.215, "temp": 37.173431, "plus": "high"}, "id": 26}, {"type": "Feature", "geometry": {"type": "Point", "coordinates": [-38.215, -9.406]}, "properties": {"city": "BA-Paulo_Afonso", "max/min": "min", "lat": -9.406, "long": -38.215, "temp": 22.627441, "plus": "medium"}, "id": 27}, {"type": "Feature", "geometry": {"type": "Point", "coordinates": [-38.511, -12.971]}, "properties": {"city": "BA-Salvador", "max/min": "max", "lat": -12.971, "long": -38.511, "temp": 28.986633, "plus": "medium"}, "id": 28}, {"type": "Feature", "geometry": {"type": "Point", "coordinates": [-38.511, -12.971]}, "properties": {"city": "BA-Salvador", "max/min": "min", "lat": -12.971, "long": -38.511, "temp": 26.963623, "plus": "medium"}, "id": 29}, {"type": "Feature", "geometry": {"type": "Point", "coordinates": [-40.839, -14.866]}, "properties": {"city": "BA-Vit\u00c3\u00b3ria_da_Conquista", "max/min": "max", "lat": -14.866, "long": -40.839, "temp": 25.52243, "plus": "medium"}, "id": 30}, {"type": "Feature", "geometry": {"type": "Point", "coordinates": [-40.839, -14.866]}, "properties": {"city": "BA-Vit\u00c3\u00b3ria_da_Conquista", "max/min": "min", "lat": -14.866, "long": -40.839, "temp": 19.80188, "plus": "low"}, "id": 31}, {"type": "Feature", "geometry": {"type": "Point", "coordinates": [-38.543, -3.717]}, "properties": {"city": "CE-Fortaleza", "max/min": "max", "lat": -3.717, "long": -38.543, "temp": 28.389496, "plus": "medium"}, "id": 32}, {"type": "Feature", "geometry": {"type": "Point", "coordinates": [-38.543, -3.717]}, "properties": {"city": "CE-Fortaleza", "max/min": "min", "lat": -3.717, "long": -38.543, "temp": 27.73819, "plus": "medium"}, "id": 33}, {"type": "Feature", "geometry": {"type": "Point", "coordinates": [-39.293, -5.199]}, "properties": {"city": "CE-Quixeramobim", "max/min": "max", "lat": -5.199, "long": -39.293, "temp": 34.400452, "plus": "high"}, "id": 34}, {"type": "Feature", "geometry": {"type": "Point", "coordinates": [-39.293, -5.199]}, "properties": {"city": "CE-Quixeramobim", "max/min": "min", "lat": -5.199, "long": -39.293, "temp": 22.764435, "plus": "medium"}, "id": 35}, {"type": "Feature", "geometry": {"type": "Point", "coordinates": [-47.93, -15.78]}, "properties": {"city": "DF-Bras\u00c3\u00adlia", "max/min": "max", "lat": -15.78, "long": -47.93, "temp": 23.80957, "plus": "medium"}, "id": 36}, {"type": "Feature", "geometry": {"type": "Point", "coordinates": [-47.93, -15.78]}, "properties": {"city": "DF-Bras\u00c3\u00adlia", "max/min": "min", "lat": -15.78, "long": -47.93, "temp": 19.320618, "plus": "low"}, "id": 37}, {"type": "Feature", "geometry": {"type": "Point", "coordinates": [-39.859, -18.716]}, "properties": {"city": "ES-S\u00c3\u00a3o_Mateus", "max/min": "max", "lat": -18.716, "long": -39.859, "temp": 28.492554, "plus": "medium"}, "id": 38}, {"type": "Feature", "geometry": {"type": "Point", "coordinates": [-39.859, -18.716]}, "properties": {"city": "ES-S\u00c3\u00a3o_Mateus", "max/min": "min", "lat": -18.716, "long": -39.859, "temp": 22.809875, "plus": "medium"}, "id": 39}, {"type": "Feature", "geometry": {"type": "Point", "coordinates": [-40.338, -20.319]}, "properties": {"city": "ES-Vit\u00c3\u00b3ria", "max/min": "max", "lat": -20.319, "long": -40.338, "temp": 26.189392, "plus": "medium"}, "id": 40}, {"type": "Feature", "geometry": {"type": "Point", "coordinates": [-40.338, -20.319]}, "properties": {"city": "ES-Vit\u00c3\u00b3ria", "max/min": "min", "lat": -20.319, "long": -40.338, "temp": 24.757446, "plus": "medium"}, "id": 41}, {"type": "Feature", "geometry": {"type": "Point", "coordinates": [-52.251, -15.897]}, "properties": {"city": "GO-Aragar\u00c3\u00a7as", "max/min": "max", "lat": -15.897, "long": -52.251, "temp": 32.427185, "plus": "high"}, "id": 42}, {"type": "Feature", "geometry": {"type": "Point", "coordinates": [-52.251, -15.897]}, "properties": {"city": "GO-Aragar\u00c3\u00a7as", "max/min": "min", "lat": -15.897, "long": -52.251, "temp": 23.15863, "plus": "medium"}, "id": 43}, {"type": "Feature", "geometry": {"type": "Point", "coordinates": [-49.254, -16.679]}, "properties": {"city": "GO-Goi\u00c3\u00a2nia", "max/min": "max", "lat": -16.679, "long": -49.254, "temp": 26.738434, "plus": "medium"}, "id": 44}, {"type": "Feature", "geometry": {"type": "Point", "coordinates": [-49.254, -16.679]}, "properties": {"city": "GO-Goi\u00c3\u00a2nia", "max/min": "min", "lat": -16.679, "long": -49.254, "temp": 20.379639, "plus": "low"}, "id": 45}, {"type": "Feature", "geometry": {"type": "Point", "coordinates": [-50.928, -17.798]}, "properties": {"city": "GO-Rio_Verde", "max/min": "max", "lat": -17.798, "long": -50.928, "temp": 30.925568, "plus": "medium"}, "id": 46}, {"type": "Feature", "geometry": {"type": "Point", "coordinates": [-50.928, -17.798]}, "properties": {"city": "GO-Rio_Verde", "max/min": "min", "lat": -17.798, "long": -50.928, "temp": 21.01062, "plus": "medium"}, "id": 47}, {"type": "Feature", "geometry": {"type": "Point", "coordinates": [-47.469, -7.333]}, "properties": {"city": "MA-Carolina", "max/min": "max", "lat": -7.333, "long": -47.469, "temp": 33.103577, "plus": "high"}, "id": 48}, {"type": "Feature", "geometry": {"type": "Point", "coordinates": [-47.469, -7.333]}, "properties": {"city": "MA-Carolina", "max/min": "min", "lat": -7.333, "long": -47.469, "temp": 23.44162, "plus": "medium"}, "id": 49}, {"type": "Feature", "geometry": {"type": "Point", "coordinates": [-44.2, -2.53]}, "properties": {"city": "MA-S\u00c3\u00a3o_Lu\u00c3\u00ads", "max/min": "max", "lat": -2.53, "long": -44.2, "temp": 30.868195, "plus": "medium"}, "id": 50}, {"type": "Feature", "geometry": {"type": "Point", "coordinates": [-44.2, -2.53]}, "properties": {"city": "MA-S\u00c3\u00a3o_Lu\u00c3\u00ads", "max/min": "min", "lat": -2.53, "long": -44.2, "temp": 26.313446, "plus": "medium"}, "id": 51}, {"type": "Feature", "geometry": {"type": "Point", "coordinates": [-41.064, -19.496]}, "properties": {"city": "MG-Aimor\u00c3\u00a9s", "max/min": "max", "lat": -19.496, "long": -41.064, "temp": 27.454559, "plus": "medium"}, "id": 52}, {"type": "Feature", "geometry": {"type": "Point", "coordinates": [-41.064, -19.496]}, "properties": {"city": "MG-Aimor\u00c3\u00a9s", "max/min": "min", "lat": -19.496, "long": -41.064, "temp": 21.676453, "plus": "medium"}, "id": 53}, {"type": "Feature", "geometry": {"type": "Point", "coordinates": [-42.07, -16.85]}, "properties": {"city": "MG-Ara\u00c3\u00a7ua\u00c3\u00ad", "max/min": "max", "lat": -16.85, "long": -42.07, "temp": 28.107208, "plus": "medium"}, "id": 54}, {"type": "Feature", "geometry": {"type": "Point", "coordinates": [-42.07, -16.85]}, "properties": {"city": "MG-Ara\u00c3\u00a7ua\u00c3\u00ad", "max/min": "min", "lat": -16.85, "long": -42.07, "temp": 21.25589, "plus": "medium"}, "id": 55}, {"type": "Feature", "geometry": {"type": "Point", "coordinates": [-43.938, -19.921]}, "properties": {"city": "MG-Belo_Horizonte", "max/min": "max", "lat": -19.921, "long": -43.938, "temp": 25.814575, "plus": "medium"}, "id": 56}, {"type": "Feature", "geometry": {"type": "Point", "coordinates": [-43.938, -19.921]}, "properties": {"city": "MG-Belo_Horizonte", "max/min": "min", "lat": -19.921, "long": -43.938, "temp": 20.126434, "plus": "low"}, "id": 57}, {"type": "Feature", "geometry": {"type": "Point", "coordinates": [-42.139, -19.79]}, "properties": {"city": "MG-Caratinga", "max/min": "max", "lat": -19.79, "long": -42.139, "temp": 25.969513, "plus": "medium"}, "id": 58}, {"type": "Feature", "geometry": {"type": "Point", "coordinates": [-42.139, -19.79]}, "properties": {"city": "MG-Caratinga", "max/min": "min", "lat": -19.79, "long": -42.139, "temp": 19.955444, "plus": "low"}, "id": 59}, {"type": "Feature", "geometry": {"type": "Point", "coordinates": [-42.859, -17.857]}, "properties": {"city": "MG-Itamarandiba", "max/min": "max", "lat": -17.857, "long": -42.859, "temp": 24.936554, "plus": "medium"}, "id": 60}, {"type": "Feature", "geometry": {"type": "Point", "coordinates": [-42.859, -17.857]}, "properties": {"city": "MG-Itamarandiba", "max/min": "min", "lat": -17.857, "long": -42.859, "temp": 18.59845, "plus": "low"}, "id": 61}, {"type": "Feature", "geometry": {"type": "Point", "coordinates": [-44.37, -15.43]}, "properties": {"city": "MG-Janu\u00c3\u00a1ria", "max/min": "max", "lat": -15.43, "long": -44.37, "temp": 27.831207, "plus": "medium"}, "id": 62}, {"type": "Feature", "geometry": {"type": "Point", "coordinates": [-44.37, -15.43]}, "properties": {"city": "MG-Janu\u00c3\u00a1ria", "max/min": "min", "lat": -15.43, "long": -44.37, "temp": 21.338623, "plus": "medium"}, "id": 63}, {"type": "Feature", "geometry": {"type": "Point", "coordinates": [-43.35, -21.764]}, "properties": {"city": "MG-Juiz_de_Fora", "max/min": "max", "lat": -21.764, "long": -43.35, "temp": 26.426453, "plus": "medium"}, "id": 64}, {"type": "Feature", "geometry": {"type": "Point", "coordinates": [-43.35, -21.764]}, "properties": {"city": "MG-Juiz_de_Fora", "max/min": "min", "lat": -21.764, "long": -43.35, "temp": 18.454437, "plus": "low"}, "id": 65}, {"type": "Feature", "geometry": {"type": "Point", "coordinates": [-45.92, -21.675]}, "properties": {"city": "MG-Machado", "max/min": "max", "lat": -21.675, "long": -45.92, "temp": 28.400452, "plus": "medium"}, "id": 66}, {"type": "Feature", "geometry": {"type": "Point", "coordinates": [-45.92, -21.675]}, "properties": {"city": "MG-Machado", "max/min": "min", "lat": -21.675, "long": -45.92, "temp": 17.51944, "plus": "low"}, "id": 67}, {"type": "Feature", "geometry": {"type": "Point", "coordinates": [-46.875, -17.222]}, "properties": {"city": "MG-Paracatu", "max/min": "max", "lat": -17.222, "long": -46.875, "temp": 27.437561, "plus": "medium"}, "id": 68}, {"type": "Feature", "geometry": {"type": "Point", "coordinates": [-46.875, -17.222]}, "properties": {"city": "MG-Paracatu", "max/min": "min", "lat": -17.222, "long": -46.875, "temp": 21.901642, "plus": "medium"}, "id": 69}, {"type": "Feature", "geometry": {"type": "Point", "coordinates": [-48.277, -18.919]}, "properties": {"city": "MG-Uberl\u00c3\u00a2ndia", "max/min": "max", "lat": -18.919, "long": -48.277, "temp": 30.470428, "plus": "medium"}, "id": 70}, {"type": "Feature", "geometry": {"type": "Point", "coordinates": [-48.277, -18.919]}, "properties": {"city": "MG-Uberl\u00c3\u00a2ndia", "max/min": "min", "lat": -18.919, "long": -48.277, "temp": 19.768646, "plus": "low"}, "id": 71}, {"type": "Feature", "geometry": {"type": "Point", "coordinates": [-54.646, -20.443]}, "properties": {"city": "MS-Campo_Grande", "max/min": "max", "lat": -20.443, "long": -54.646, "temp": 32.073517, "plus": "high"}, "id": 72}, {"type": "Feature", "geometry": {"type": "Point", "coordinates": [-54.646, -20.443]}, "properties": {"city": "MS-Campo_Grande", "max/min": "min", "lat": -20.443, "long": -54.646, "temp": 23.596619, "plus": "medium"}, "id": 73}, {"type": "Feature", "geometry": {"type": "Point", "coordinates": [-57.653, -19.009]}, "properties": {"city": "MS-Corumb\u00c3\u00a1", "max/min": "max", "lat": -19.009, "long": -57.653, "temp": 37.058502, "plus": "high"}, "id": 74}, {"type": "Feature", "geometry": {"type": "Point", "coordinates": [-57.653, -19.009]}, "properties": {"city": "MS-Corumb\u00c3\u00a1", "max/min": "min", "lat": -19.009, "long": -57.653, "temp": 28.766632, "plus": "medium"}, "id": 75}, {"type": "Feature", "geometry": {"type": "Point", "coordinates": [-55.726, -22.536]}, "properties": {"city": "MS-Ponta_Por\u00c3\u00a3", "max/min": "max", "lat": -22.536, "long": -55.726, "temp": 29.358521, "plus": "medium"}, "id": 76}, {"type": "Feature", "geometry": {"type": "Point", "coordinates": [-55.726, -22.536]}, "properties": {"city": "MS-Ponta_Por\u00c3\u00a3", "max/min": "min", "lat": -22.536, "long": -55.726, "temp": 23.557617, "plus": "medium"}, "id": 77}, {"type": "Feature", "geometry": {"type": "Point", "coordinates": [-56.097, -15.596]}, "properties": {"city": "MT-Cuiab\u00c3\u00a1", "max/min": "max", "lat": -15.596, "long": -56.097, "temp": 36.485565, "plus": "high"}, "id": 78}, {"type": "Feature", "geometry": {"type": "Point", "coordinates": [-56.097, -15.596]}, "properties": {"city": "MT-Cuiab\u00c3\u00a1", "max/min": "min", "lat": -15.596, "long": -56.097, "temp": 27.695618, "plus": "medium"}, "id": 79}, {"type": "Feature", "geometry": {"type": "Point", "coordinates": [-54.636, -16.471]}, "properties": {"city": "MT-Rondon\u00c3\u00b3polis", "max/min": "max", "lat": -16.471, "long": -54.636, "temp": 33.703369, "plus": "high"}, "id": 80}, {"type": "Feature", "geometry": {"type": "Point", "coordinates": [-54.636, -16.471]}, "properties": {"city": "MT-Rondon\u00c3\u00b3polis", "max/min": "min", "lat": -16.471, "long": -54.636, "temp": 24.869629, "plus": "medium"}, "id": 81}, {"type": "Feature", "geometry": {"type": "Point", "coordinates": [-55.502, -11.864]}, "properties": {"city": "MT-Sinop", "max/min": "max", "lat": -11.864, "long": -55.502, "temp": 31.353577, "plus": "high"}, "id": 82}, {"type": "Feature", "geometry": {"type": "Point", "coordinates": [-55.502, -11.864]}, "properties": {"city": "MT-Sinop", "max/min": "min", "lat": -11.864, "long": -55.502, "temp": 22.95163, "plus": "medium"}, "id": 83}, {"type": "Feature", "geometry": {"type": "Point", "coordinates": [-52.206, -3.203]}, "properties": {"city": "PA-Altamira", "max/min": "max", "lat": -3.203, "long": -52.206, "temp": 33.291443, "plus": "high"}, "id": 84}, {"type": "Feature", "geometry": {"type": "Point", "coordinates": [-52.206, -3.203]}, "properties": {"city": "PA-Altamira", "max/min": "min", "lat": -3.203, "long": -52.206, "temp": 22.927643, "plus": "medium"}, "id": 85}, {"type": "Feature", "geometry": {"type": "Point", "coordinates": [-48.504, -1.456]}, "properties": {"city": "PA-Bel\u00c3\u00a9m", "max/min": "max", "lat": -1.456, "long": -48.504, "temp": 31.748566, "plus": "high"}, "id": 86}, {"type": "Feature", "geometry": {"type": "Point", "coordinates": [-48.504, -1.456]}, "properties": {"city": "PA-Bel\u00c3\u00a9m", "max/min": "min", "lat": -1.456, "long": -48.504, "temp": 23.311646, "plus": "medium"}, "id": 87}, {"type": "Feature", "geometry": {"type": "Point", "coordinates": [-49.265, -8.258]}, "properties": {"city": "PA-Concei\u00c3\u00a7\u00c3\u00a3o_do_Araguaia", "max/min": "max", "lat": -8.258, "long": -49.265, "temp": 31.686554, "plus": "high"}, "id": 88}, {"type": "Feature", "geometry": {"type": "Point", "coordinates": [-49.265, -8.258]}, "properties": {"city": "PA-Concei\u00c3\u00a7\u00c3\u00a3o_do_Araguaia", "max/min": "min", "lat": -8.258, "long": -49.265, "temp": 25.309631, "plus": "medium"}, "id": 89}, {"type": "Feature", "geometry": {"type": "Point", "coordinates": [-49.118, -5.369]}, "properties": {"city": "PA-Marab\u00c3\u00a1", "max/min": "max", "lat": -5.369, "long": -49.118, "temp": 31.984192, "plus": "high"}, "id": 90}, {"type": "Feature", "geometry": {"type": "Point", "coordinates": [-49.118, -5.369]}, "properties": {"city": "PA-Marab\u00c3\u00a1", "max/min": "min", "lat": -5.369, "long": -49.118, "temp": 23.513641, "plus": "medium"}, "id": 91}, {"type": "Feature", "geometry": {"type": "Point", "coordinates": [-54.708, -2.5]}, "properties": {"city": "PA-Santar\u00c3\u00a9m", "max/min": "max", "lat": -2.5, "long": -54.708, "temp": 33.687439, "plus": "high"}, "id": 92}, {"type": "Feature", "geometry": {"type": "Point", "coordinates": [-54.708, -2.5]}, "properties": {"city": "PA-Santar\u00c3\u00a9m", "max/min": "min", "lat": -2.5, "long": -54.708, "temp": 25.150635, "plus": "medium"}, "id": 93}, {"type": "Feature", "geometry": {"type": "Point", "coordinates": [-49.672, -3.766]}, "properties": {"city": "PA-Tucuru\u00c3\u00ad", "max/min": "max", "lat": -3.766, "long": -49.672, "temp": 32.720428, "plus": "high"}, "id": 94}, {"type": "Feature", "geometry": {"type": "Point", "coordinates": [-49.672, -3.766]}, "properties": {"city": "PA-Tucuru\u00c3\u00ad", "max/min": "min", "lat": -3.766, "long": -49.672, "temp": 23.802643, "plus": "medium"}, "id": 95}, {"type": "Feature", "geometry": {"type": "Point", "coordinates": [-35.881, -7.231]}, "properties": {"city": "PB-Campina_Grande", "max/min": "max", "lat": -7.231, "long": -35.881, "temp": 33.414581, "plus": "high"}, "id": 96}, {"type": "Feature", "geometry": {"type": "Point", "coordinates": [-35.881, -7.231]}, "properties": {"city": "PB-Campina_Grande", "max/min": "min", "lat": -7.231, "long": -35.881, "temp": 20.58844, "plus": "low"}, "id": 97}, {"type": "Feature", "geometry": {"type": "Point", "coordinates": [-34.863, -7.115]}, "properties": {"city": "PB-Jo\u00c3\u00a3o_Pessoa", "max/min": "max", "lat": -7.115, "long": -34.863, "temp": 31.083618, "plus": "high"}, "id": 98}, {"type": "Feature", "geometry": {"type": "Point", "coordinates": [-34.863, -7.115]}, "properties": {"city": "PB-Jo\u00c3\u00a3o_Pessoa", "max/min": "min", "lat": -7.115, "long": -34.863, "temp": 23.808441, "plus": "medium"}, "id": 99}, {"type": "Feature", "geometry": {"type": "Point", "coordinates": [-37.28, -7.024]}, "properties": {"city": "PB-Patos", "max/min": "max", "lat": -7.024, "long": -37.28, "temp": 32.630432, "plus": "high"}, "id": 100}, {"type": "Feature", "geometry": {"type": "Point", "coordinates": [-37.28, -7.024]}, "properties": {"city": "PB-Patos", "max/min": "min", "lat": -7.024, "long": -37.28, "temp": 21.562439, "plus": "medium"}, "id": 101}, {"type": "Feature", "geometry": {"type": "Point", "coordinates": [-36.493, -8.89]}, "properties": {"city": "PE-Garanhuns", "max/min": "max", "lat": -8.89, "long": -36.493, "temp": 33.136566, "plus": "high"}, "id": 102}, {"type": "Feature", "geometry": {"type": "Point", "coordinates": [-36.493, -8.89]}, "properties": {"city": "PE-Garanhuns", "max/min": "min", "lat": -8.89, "long": -36.493, "temp": 20.376434, "plus": "low"}, "id": 103}, {"type": "Feature", "geometry": {"type": "Point", "coordinates": [-40.501, -9.399]}, "properties": {"city": "PE-Petrolina", "max/min": "max", "lat": -9.399, "long": -40.501, "temp": 34.212433, "plus": "high"}, "id": 104}, {"type": "Feature", "geometry": {"type": "Point", "coordinates": [-40.501, -9.399]}, "properties": {"city": "PE-Petrolina", "max/min": "min", "lat": -9.399, "long": -40.501, "temp": 24.312439, "plus": "medium"}, "id": 105}, {"type": "Feature", "geometry": {"type": "Point", "coordinates": [-34.9, -8.054]}, "properties": {"city": "PE-Recife", "max/min": "max", "lat": -8.054, "long": -34.9, "temp": 31.256622, "plus": "high"}, "id": 106}, {"type": "Feature", "geometry": {"type": "Point", "coordinates": [-34.9, -8.054]}, "properties": {"city": "PE-Recife", "max/min": "min", "lat": -8.054, "long": -34.9, "temp": 26.556458, "plus": "medium"}, "id": 107}, {"type": "Feature", "geometry": {"type": "Point", "coordinates": [-42.802, -5.089]}, "properties": {"city": "PI-Teresina", "max/min": "max", "lat": -5.089, "long": -42.802, "temp": 32.339447, "plus": "high"}, "id": 108}, {"type": "Feature", "geometry": {"type": "Point", "coordinates": [-42.802, -5.089]}, "properties": {"city": "PI-Teresina", "max/min": "min", "lat": -5.089, "long": -42.802, "temp": 22.236633, "plus": "medium"}, "id": 109}, {"type": "Feature", "geometry": {"type": "Point", "coordinates": [-52.383, -24.046]}, "properties": {"city": "PR-Campo_Mour\u00c3\u00a3o", "max/min": "max", "lat": -24.046, "long": -52.383, "temp": 29.564514, "plus": "medium"}, "id": 110}, {"type": "Feature", "geometry": {"type": "Point", "coordinates": [-52.383, -24.046]}, "properties": {"city": "PR-Campo_Mour\u00c3\u00a3o", "max/min": "min", "lat": -24.046, "long": -52.383, "temp": 19.240631, "plus": "low"}, "id": 111}, {"type": "Feature", "geometry": {"type": "Point", "coordinates": [-49.273, -25.428]}, "properties": {"city": "PR-Curitiba", "max/min": "max", "lat": -25.428, "long": -49.273, "temp": 22.41156, "plus": "medium"}, "id": 112}, {"type": "Feature", "geometry": {"type": "Point", "coordinates": [-49.273, -25.428]}, "properties": {"city": "PR-Curitiba", "max/min": "min", "lat": -25.428, "long": -49.273, "temp": 15.688629, "plus": "low"}, "id": 113}, {"type": "Feature", "geometry": {"type": "Point", "coordinates": [-54.588, -25.548]}, "properties": {"city": "PR-Foz_do_Igua\u00c3\u00a7u", "max/min": "max", "lat": -25.548, "long": -54.588, "temp": 27.246124, "plus": "medium"}, "id": 114}, {"type": "Feature", "geometry": {"type": "Point", "coordinates": [-54.588, -25.548]}, "properties": {"city": "PR-Foz_do_Igua\u00c3\u00a7u", "max/min": "min", "lat": -25.548, "long": -54.588, "temp": 22.770508, "plus": "medium"}, "id": 115}, {"type": "Feature", "geometry": {"type": "Point", "coordinates": [-50.859, -25.011]}, "properties": {"city": "PR-Iva\u00c3\u00ad", "max/min": "max", "lat": -25.011, "long": -50.859, "temp": 25.67157, "plus": "medium"}, "id": 116}, {"type": "Feature", "geometry": {"type": "Point", "coordinates": [-50.859, -25.011]}, "properties": {"city": "PR-Iva\u00c3\u00ad", "max/min": "min", "lat": -25.011, "long": -50.859, "temp": 16.803497, "plus": "low"}, "id": 117}, {"type": "Feature", "geometry": {"type": "Point", "coordinates": [-51.163, -23.31]}, "properties": {"city": "PR-Londrina", "max/min": "max", "lat": -23.31, "long": -51.163, "temp": 29.971436, "plus": "medium"}, "id": 118}, {"type": "Feature", "geometry": {"type": "Point", "coordinates": [-51.163, -23.31]}, "properties": {"city": "PR-Londrina", "max/min": "min", "lat": -23.31, "long": -51.163, "temp": 19.557617, "plus": "low"}, "id": 119}, {"type": "Feature", "geometry": {"type": "Point", "coordinates": [-48.509, -25.52]}, "properties": {"city": "PR-Paranagu\u00c3\u00a1", "max/min": "max", "lat": -25.52, "long": -48.509, "temp": 27.539642, "plus": "medium"}, "id": 120}, {"type": "Feature", "geometry": {"type": "Point", "coordinates": [-48.509, -25.52]}, "properties": {"city": "PR-Paranagu\u00c3\u00a1", "max/min": "min", "lat": -25.52, "long": -48.509, "temp": 19.769867, "plus": "low"}, "id": 121}, {"type": "Feature", "geometry": {"type": "Point", "coordinates": [-41.324, -21.754]}, "properties": {"city": "RJ-Campos_dos_Goytacazes", "max/min": "max", "lat": -21.754, "long": -41.324, "temp": 29.527191, "plus": "medium"}, "id": 122}, {"type": "Feature", "geometry": {"type": "Point", "coordinates": [-41.324, -21.754]}, "properties": {"city": "RJ-Campos_dos_Goytacazes", "max/min": "min", "lat": -21.754, "long": -41.324, "temp": 20.444458, "plus": "low"}, "id": 123}, {"type": "Feature", "geometry": {"type": "Point", "coordinates": [-42.361, -22.029]}, "properties": {"city": "RJ-Cordeiro", "max/min": "max", "lat": -22.029, "long": -42.361, "temp": 28.560577, "plus": "medium"}, "id": 124}, {"type": "Feature", "geometry": {"type": "Point", "coordinates": [-42.361, -22.029]}, "properties": {"city": "RJ-Cordeiro", "max/min": "min", "lat": -22.029, "long": -42.361, "temp": 18.186432, "plus": "low"}, "id": 125}, {"type": "Feature", "geometry": {"type": "Point", "coordinates": [-44.713, -23.218]}, "properties": {"city": "RJ-Paraty", "max/min": "max", "lat": -23.218, "long": -44.713, "temp": 24.543579, "plus": "medium"}, "id": 126}, {"type": "Feature", "geometry": {"type": "Point", "coordinates": [-44.713, -23.218]}, "properties": {"city": "RJ-Paraty", "max/min": "min", "lat": -23.218, "long": -44.713, "temp": 16.01944, "plus": "low"}, "id": 127}, {"type": "Feature", "geometry": {"type": "Point", "coordinates": [-44.447, -22.469]}, "properties": {"city": "RJ-Resende", "max/min": "max", "lat": -22.469, "long": -44.447, "temp": 24.706512, "plus": "medium"}, "id": 128}, {"type": "Feature", "geometry": {"type": "Point", "coordinates": [-44.447, -22.469]}, "properties": {"city": "RJ-Resende", "max/min": "min", "lat": -22.469, "long": -44.447, "temp": 14.690887, "plus": "low"}, "id": 129}, {"type": "Feature", "geometry": {"type": "Point", "coordinates": [-43.208, -22.903]}, "properties": {"city": "RJ-Rio_de_Janeiro", "max/min": "max", "lat": -22.903, "long": -43.208, "temp": 29.667206, "plus": "medium"}, "id": 130}, {"type": "Feature", "geometry": {"type": "Point", "coordinates": [-43.208, -22.903]}, "properties": {"city": "RJ-Rio_de_Janeiro", "max/min": "min", "lat": -22.903, "long": -43.208, "temp": 23.102448, "plus": "medium"}, "id": 131}, {"type": "Feature", "geometry": {"type": "Point", "coordinates": [-42.103, -22.839]}, "properties": {"city": "RJ-S\u00c3\u00a3o_Pedro_da_Aldeia", "max/min": "max", "lat": -22.839, "long": -42.103, "temp": 26.544617, "plus": "medium"}, "id": 132}, {"type": "Feature", "geometry": {"type": "Point", "coordinates": [-42.103, -22.839]}, "properties": {"city": "RJ-S\u00c3\u00a3o_Pedro_da_Aldeia", "max/min": "min", "lat": -22.839, "long": -42.103, "temp": 19.183441, "plus": "low"}, "id": 133}, {"type": "Feature", "geometry": {"type": "Point", "coordinates": [-36.79, -6.412]}, "properties": {"city": "RN-Cruzeta", "max/min": "max", "lat": -6.412, "long": -36.79, "temp": 35.948517, "plus": "high"}, "id": 134}, {"type": "Feature", "geometry": {"type": "Point", "coordinates": [-36.79, -6.412]}, "properties": {"city": "RN-Cruzeta", "max/min": "min", "lat": -6.412, "long": -36.79, "temp": 23.464447, "plus": "medium"}, "id": 135}, {"type": "Feature", "geometry": {"type": "Point", "coordinates": [-37.344, -5.188]}, "properties": {"city": "RN-Mossor\u00c3\u00b3", "max/min": "max", "lat": -5.188, "long": -37.344, "temp": 32.890198, "plus": "high"}, "id": 136}, {"type": "Feature", "geometry": {"type": "Point", "coordinates": [-37.344, -5.188]}, "properties": {"city": "RN-Mossor\u00c3\u00b3", "max/min": "min", "lat": -5.188, "long": -37.344, "temp": 24.221436, "plus": "medium"}, "id": 137}, {"type": "Feature", "geometry": {"type": "Point", "coordinates": [-35.209, -5.795]}, "properties": {"city": "RN-Natal", "max/min": "max", "lat": -5.795, "long": -35.209, "temp": 31.077179, "plus": "high"}, "id": 138}, {"type": "Feature", "geometry": {"type": "Point", "coordinates": [-35.209, -5.795]}, "properties": {"city": "RN-Natal", "max/min": "min", "lat": -5.795, "long": -35.209, "temp": 26.866455, "plus": "medium"}, "id": 139}, {"type": "Feature", "geometry": {"type": "Point", "coordinates": [-63.904, -8.762]}, "properties": {"city": "RO-Porto_Velho", "max/min": "max", "lat": -8.762, "long": -63.904, "temp": 32.539124, "plus": "high"}, "id": 140}, {"type": "Feature", "geometry": {"type": "Point", "coordinates": [-63.904, -8.762]}, "properties": {"city": "RO-Porto_Velho", "max/min": "min", "lat": -8.762, "long": -63.904, "temp": 23.710327, "plus": "medium"}, "id": 141}, {"type": "Feature", "geometry": {"type": "Point", "coordinates": [-60.146, -12.741]}, "properties": {"city": "RO-Vilhena", "max/min": "max", "lat": -12.741, "long": -60.146, "temp": 29.92157, "plus": "medium"}, "id": 142}, {"type": "Feature", "geometry": {"type": "Point", "coordinates": [-60.146, -12.741]}, "properties": {"city": "RO-Vilhena", "max/min": "min", "lat": -12.741, "long": -60.146, "temp": 22.330627, "plus": "medium"}, "id": 143}, {"type": "Feature", "geometry": {"type": "Point", "coordinates": [-60.75, 2.82]}, "properties": {"city": "RR-Boa_Vista", "max/min": "max", "lat": 2.82, "long": -60.75, "temp": 35.982391, "plus": "high"}, "id": 144}, {"type": "Feature", "geometry": {"type": "Point", "coordinates": [-60.75, 2.82]}, "properties": {"city": "RR-Boa_Vista", "max/min": "min", "lat": 2.82, "long": -60.75, "temp": 25.904327, "plus": "medium"}, "id": 145}, {"type": "Feature", "geometry": {"type": "Point", "coordinates": [-54.107, -31.331]}, "properties": {"city": "RS-Bag\u00c3\u00a9", "max/min": "max", "lat": -31.331, "long": -54.107, "temp": 30.205505, "plus": "medium"}, "id": 146}, {"type": "Feature", "geometry": {"type": "Point", "coordinates": [-54.107, -31.331]}, "properties": {"city": "RS-Bag\u00c3\u00a9", "max/min": "min", "lat": -31.331, "long": -54.107, "temp": 21.027618, "plus": "medium"}, "id": 147}, {"type": "Feature", "geometry": {"type": "Point", "coordinates": [-50.417, -28.668]}, "properties": {"city": "RS-Bom_Jesus", "max/min": "max", "lat": -28.668, "long": -50.417, "temp": 18.525635, "plus": "low"}, "id": 148}, {"type": "Feature", "geometry": {"type": "Point", "coordinates": [-50.417, -28.668]}, "properties": {"city": "RS-Bom_Jesus", "max/min": "min", "lat": -28.668, "long": -50.417, "temp": 14.792694, "plus": "low"}, "id": 149}, {"type": "Feature", "geometry": {"type": "Point", "coordinates": [-52.407, -28.263]}, "properties": {"city": "RS-Passo_Fundo", "max/min": "max", "lat": -28.263, "long": -52.407, "temp": 21.262329, "plus": "medium"}, "id": 150}, {"type": "Feature", "geometry": {"type": "Point", "coordinates": [-52.407, -28.263]}, "properties": {"city": "RS-Passo_Fundo", "max/min": "min", "lat": -28.263, "long": -52.407, "temp": 15.612518, "plus": "low"}, "id": 151}, {"type": "Feature", "geometry": {"type": "Point", "coordinates": [-51.23, -30.033]}, "properties": {"city": "RS-Porto_Alegre", "max/min": "max", "lat": -30.033, "long": -51.23, "temp": 27.969116, "plus": "medium"}, "id": 152}, {"type": "Feature", "geometry": {"type": "Point", "coordinates": [-51.23, -30.033]}, "properties": {"city": "RS-Porto_Alegre", "max/min": "min", "lat": -30.033, "long": -51.23, "temp": 22.231506, "plus": "medium"}, "id": 153}, {"type": "Feature", "geometry": {"type": "Point", "coordinates": [-52.099, -32.035]}, "properties": {"city": "RS-Rio_Grande", "max/min": "max", "lat": -32.035, "long": -52.099, "temp": 24.495117, "plus": "medium"}, "id": 154}, {"type": "Feature", "geometry": {"type": "Point", "coordinates": [-52.099, -32.035]}, "properties": {"city": "RS-Rio_Grande", "max/min": "min", "lat": -32.035, "long": -52.099, "temp": 23.897125, "plus": "medium"}, "id": 155}, {"type": "Feature", "geometry": {"type": "Point", "coordinates": [-53.807, -29.684]}, "properties": {"city": "RS-Santa_Maria", "max/min": "max", "lat": -29.684, "long": -53.807, "temp": 22.900116, "plus": "medium"}, "id": 156}, {"type": "Feature", "geometry": {"type": "Point", "coordinates": [-53.807, -29.684]}, "properties": {"city": "RS-Santa_Maria", "max/min": "min", "lat": -29.684, "long": -53.807, "temp": 19.590515, "plus": "low"}, "id": 157}, {"type": "Feature", "geometry": {"type": "Point", "coordinates": [-54.961, -28.408]}, "properties": {"city": "RS-S\u00c3\u00a3o_Luiz_Gonzaga", "max/min": "max", "lat": -28.408, "long": -54.961, "temp": 26.05719, "plus": "medium"}, "id": 158}, {"type": "Feature", "geometry": {"type": "Point", "coordinates": [-54.961, -28.408]}, "properties": {"city": "RS-S\u00c3\u00a3o_Luiz_Gonzaga", "max/min": "min", "lat": -28.408, "long": -54.961, "temp": 19.621521, "plus": "low"}, "id": 159}, {"type": "Feature", "geometry": {"type": "Point", "coordinates": [-50.2, -29.985]}, "properties": {"city": "RS-Tramanda\u00c3\u00ad", "max/min": "max", "lat": -29.985, "long": -50.2, "temp": 26.270996, "plus": "medium"}, "id": 160}, {"type": "Feature", "geometry": {"type": "Point", "coordinates": [-50.2, -29.985]}, "properties": {"city": "RS-Tramanda\u00c3\u00ad", "max/min": "min", "lat": -29.985, "long": -50.2, "temp": 20.008514, "plus": "low"}, "id": 161}, {"type": "Feature", "geometry": {"type": "Point", "coordinates": [-57.088, -29.755]}, "properties": {"city": "RS-Uruguaiana", "max/min": "max", "lat": -29.755, "long": -57.088, "temp": 29.626373, "plus": "medium"}, "id": 162}, {"type": "Feature", "geometry": {"type": "Point", "coordinates": [-57.088, -29.755]}, "properties": {"city": "RS-Uruguaiana", "max/min": "min", "lat": -29.755, "long": -57.088, "temp": 21.420441, "plus": "medium"}, "id": 163}, {"type": "Feature", "geometry": {"type": "Point", "coordinates": [-51.225, -27.402]}, "properties": {"city": "SC-Campos_Novos", "max/min": "max", "lat": -27.402, "long": -51.225, "temp": 18.416138, "plus": "low"}, "id": 164}, {"type": "Feature", "geometry": {"type": "Point", "coordinates": [-51.225, -27.402]}, "properties": {"city": "SC-Campos_Novos", "max/min": "min", "lat": -27.402, "long": -51.225, "temp": 14.836517, "plus": "low"}, "id": 165}, {"type": "Feature", "geometry": {"type": "Point", "coordinates": [-52.618, -27.096]}, "properties": {"city": "SC-Chapec\u00c3\u00b3", "max/min": "max", "lat": -27.096, "long": -52.618, "temp": 23.564575, "plus": "medium"}, "id": 166}, {"type": "Feature", "geometry": {"type": "Point", "coordinates": [-52.618, -27.096]}, "properties": {"city": "SC-Chapec\u00c3\u00b3", "max/min": "min", "lat": -27.096, "long": -52.618, "temp": 18.047516, "plus": "low"}, "id": 167}, {"type": "Feature", "geometry": {"type": "Point", "coordinates": [-48.5, -27.597]}, "properties": {"city": "SC-Florian\u00c3\u00b3polis", "max/min": "max", "lat": -27.597, "long": -48.5, "temp": 25.132324, "plus": "medium"}, "id": 168}, {"type": "Feature", "geometry": {"type": "Point", "coordinates": [-48.5, -27.597]}, "properties": {"city": "SC-Florian\u00c3\u00b3polis", "max/min": "min", "lat": -27.597, "long": -48.5, "temp": 23.859497, "plus": "medium"}, "id": 169}, {"type": "Feature", "geometry": {"type": "Point", "coordinates": [-49.232, -26.898]}, "properties": {"city": "SC-Indaial", "max/min": "max", "lat": -26.898, "long": -49.232, "temp": 26.698181, "plus": "medium"}, "id": 170}, {"type": "Feature", "geometry": {"type": "Point", "coordinates": [-49.232, -26.898]}, "properties": {"city": "SC-Indaial", "max/min": "min", "lat": -26.898, "long": -49.232, "temp": 15.562439, "plus": "low"}, "id": 171}, {"type": "Feature", "geometry": {"type": "Point", "coordinates": [-37.072, -10.911]}, "properties": {"city": "SE-Aracaju", "max/min": "max", "lat": -10.911, "long": -37.072, "temp": 34.00058, "plus": "high"}, "id": 172}, {"type": "Feature", "geometry": {"type": "Point", "coordinates": [-37.072, -10.911]}, "properties": {"city": "SE-Aracaju", "max/min": "min", "lat": -10.911, "long": -37.072, "temp": 24.572449, "plus": "medium"}, "id": 173}, {"type": "Feature", "geometry": {"type": "Point", "coordinates": [-49.061, -22.315]}, "properties": {"city": "SP-Bauru", "max/min": "max", "lat": -22.315, "long": -49.061, "temp": 32.359436, "plus": "high"}, "id": 174}, {"type": "Feature", "geometry": {"type": "Point", "coordinates": [-49.061, -22.315]}, "properties": {"city": "SP-Bauru", "max/min": "min", "lat": -22.315, "long": -49.061, "temp": 20.547638, "plus": "low"}, "id": 175}, {"type": "Feature", "geometry": {"type": "Point", "coordinates": [-47.061, -22.906]}, "properties": {"city": "SP-Campinas", "max/min": "max", "lat": -22.906, "long": -47.061, "temp": 30.705566, "plus": "medium"}, "id": 176}, {"type": "Feature", "geometry": {"type": "Point", "coordinates": [-47.061, -22.906]}, "properties": {"city": "SP-Campinas", "max/min": "min", "lat": -22.906, "long": -47.061, "temp": 20.659454, "plus": "low"}, "id": 177}, {"type": "Feature", "geometry": {"type": "Point", "coordinates": [-45.591, -22.739]}, "properties": {"city": "SP-Campos_do_Jord\u00c3\u00a3o", "max/min": "max", "lat": -22.739, "long": -45.591, "temp": 24.25058, "plus": "medium"}, "id": 178}, {"type": "Feature", "geometry": {"type": "Point", "coordinates": [-45.591, -22.739]}, "properties": {"city": "SP-Campos_do_Jord\u00c3\u00a3o", "max/min": "min", "lat": -22.739, "long": -45.591, "temp": 14.567444, "plus": "low"}, "id": 179}, {"type": "Feature", "geometry": {"type": "Point", "coordinates": [-47.401, -20.539]}, "properties": {"city": "SP-Franca", "max/min": "max", "lat": -20.539, "long": -47.401, "temp": 30.229492, "plus": "medium"}, "id": 180}, {"type": "Feature", "geometry": {"type": "Point", "coordinates": [-47.401, -20.539]}, "properties": {"city": "SP-Franca", "max/min": "min", "lat": -20.539, "long": -47.401, "temp": 20.039642, "plus": "low"}, "id": 181}, {"type": "Feature", "geometry": {"type": "Point", "coordinates": [-47.426, -21.996]}, "properties": {"city": "SP-Pirassununga", "max/min": "max", "lat": -21.996, "long": -47.426, "temp": 31.152435, "plus": "high"}, "id": 182}, {"type": "Feature", "geometry": {"type": "Point", "coordinates": [-47.426, -21.996]}, "properties": {"city": "SP-Pirassununga", "max/min": "min", "lat": -21.996, "long": -47.426, "temp": 18.591431, "plus": "low"}, "id": 183}, {"type": "Feature", "geometry": {"type": "Point", "coordinates": [-51.389, -22.126]}, "properties": {"city": "SP-Presidente_Prudente", "max/min": "max", "lat": -22.126, "long": -51.389, "temp": 32.670441, "plus": "high"}, "id": 184}, {"type": "Feature", "geometry": {"type": "Point", "coordinates": [-51.389, -22.126]}, "properties": {"city": "SP-Presidente_Prudente", "max/min": "min", "lat": -22.126, "long": -51.389, "temp": 21.314636, "plus": "medium"}, "id": 185}, {"type": "Feature", "geometry": {"type": "Point", "coordinates": [-47.81, -21.178]}, "properties": {"city": "SP-Ribeir\u00c3\u00a3o_Preto", "max/min": "max", "lat": -21.178, "long": -47.81, "temp": 32.11145, "plus": "high"}, "id": 186}, {"type": "Feature", "geometry": {"type": "Point", "coordinates": [-47.81, -21.178]}, "properties": {"city": "SP-Ribeir\u00c3\u00a3o_Preto", "max/min": "min", "lat": -21.178, "long": -47.81, "temp": 20.319458, "plus": "low"}, "id": 187}, {"type": "Feature", "geometry": {"type": "Point", "coordinates": [-46.334, -23.9]}, "properties": {"city": "SP-Santos", "max/min": "max", "lat": -23.9, "long": -46.334, "temp": 25.833618, "plus": "medium"}, "id": 188}, {"type": "Feature", "geometry": {"type": "Point", "coordinates": [-46.334, -23.9]}, "properties": {"city": "SP-Santos", "max/min": "min", "lat": -23.9, "long": -46.334, "temp": 19.050446, "plus": "low"}, "id": 189}, {"type": "Feature", "geometry": {"type": "Point", "coordinates": [-49.379, -20.82]}, "properties": {"city": "SP-S\u00c3\u00a3o_Jos\u00c3\u00a9_do_Rio_Preto", "max/min": "max", "lat": -20.82, "long": -49.379, "temp": 32.458496, "plus": "high"}, "id": 190}, {"type": "Feature", "geometry": {"type": "Point", "coordinates": [-49.379, -20.82]}, "properties": {"city": "SP-S\u00c3\u00a3o_Jos\u00c3\u00a9_do_Rio_Preto", "max/min": "min", "lat": -20.82, "long": -49.379, "temp": 21.389618, "plus": "medium"}, "id": 191}, {"type": "Feature", "geometry": {"type": "Point", "coordinates": [-46.636, -23.548]}, "properties": {"city": "SP-S\u00c3\u00a3o_Paulo", "max/min": "max", "lat": -23.548, "long": -46.636, "temp": 27.889191, "plus": "medium"}, "id": 192}, {"type": "Feature", "geometry": {"type": "Point", "coordinates": [-46.636, -23.548]}, "properties": {"city": "SP-S\u00c3\u00a3o_Paulo", "max/min": "min", "lat": -23.548, "long": -46.636, "temp": 18.65744, "plus": "low"}, "id": 193}, {"type": "Feature", "geometry": {"type": "Point", "coordinates": [-47.458, -23.502]}, "properties": {"city": "SP-Sorocaba", "max/min": "max", "lat": -23.502, "long": -47.458, "temp": 29.703583, "plus": "medium"}, "id": 194}, {"type": "Feature", "geometry": {"type": "Point", "coordinates": [-47.458, -23.502]}, "properties": {"city": "SP-Sorocaba", "max/min": "min", "lat": -23.502, "long": -47.458, "temp": 17.670441, "plus": "low"}, "id": 195}, {"type": "Feature", "geometry": {"type": "Point", "coordinates": [-45.555, -23.026]}, "properties": {"city": "SP-Taubat\u00c3\u00a9", "max/min": "max", "lat": -23.026, "long": -45.555, "temp": 26.219574, "plus": "medium"}, "id": 196}, {"type": "Feature", "geometry": {"type": "Point", "coordinates": [-45.555, -23.026]}, "properties": {"city": "SP-Taubat\u00c3\u00a9", "max/min": "min", "lat": -23.026, "long": -45.555, "temp": 15.06543, "plus": "low"}, "id": 197}, {"type": "Feature", "geometry": {"type": "Point", "coordinates": [-48.36, -10.213]}, "properties": {"city": "TO-Palmas", "max/min": "max", "lat": -10.213, "long": -48.36, "temp": 32.00119, "plus": "high"}, "id": 198}, {"type": "Feature", "geometry": {"type": "Point", "coordinates": [-48.36, -10.213]}, "properties": {"city": "TO-Palmas", "max/min": "min", "lat": -10.213, "long": -48.36, "temp": 22.812622, "plus": "medium"}, "id": 199}]}